City_ID,City,Country,Lat,Lng,Max Temp,Humidity,Cloudiness,Wind Speed,Current Description
0,Fukue,JP,32.6881,128.8419,63.57,78,94,4.54,overcast clouds
1,Ancud,CL,-41.8697,-73.8203,52.84,84,94,19.33,light rain
2,Albany,US,42.6001,-73.9662,79.74,61,97,7.0,overcast clouds
3,Portland,US,45.5234,-122.6762,57.99,66,99,1.99,overcast clouds
4,Kaitangata,NZ,-46.2817,169.8464,44.83,82,36,18.52,scattered clouds
5,Dzhuryn,UA,49.0329,25.5839,59.49,73,9,8.39,clear sky
6,Rikitea,PF,-23.1203,-134.9692,72.63,78,100,0.74,overcast clouds
7,Katsuura,JP,35.1333,140.3,66.67,80,100,11.54,light rain
8,Hasaki,JP,35.7333,140.8333,64.8,77,100,12.71,overcast clouds
9,Changzhou,CN,31.7833,119.9667,63.59,87,91,2.89,overcast clouds
10,Brae,GB,60.3964,-1.353,51.24,86,99,10.49,overcast clouds
11,Iskateley,RU,67.6803,53.1512,29.16,91,100,14.38,overcast clouds
12,Cayenne,GF,4.9333,-52.3333,75.24,1,75,5.75,moderate rain
13,Punta Arenas,CL,-53.15,-70.9167,42.91,81,100,8.05,overcast clouds
14,Kapaa,US,22.0752,-159.319,79.12,84,50,1.01,scattered clouds
15,Butaritari,KI,3.0707,172.7902,81.46,73,20,16.28,few clouds
16,Yellowknife,CA,62.456,-114.3525,57.72,19,75,5.75,broken clouds
17,Constitucion,CL,-35.3333,-72.4167,58.75,69,0,5.44,clear sky
18,Mashhad,IR,36.297,59.6062,71.74,49,0,4.61,clear sky
19,Busselton,AU,-33.65,115.3333,56.07,84,2,7.49,clear sky
20,Saldanha,ZA,-33.0117,17.9442,51.85,70,2,15.08,clear sky
21,Hilo,US,19.7297,-155.09,81.63,85,18,8.01,few clouds
22,Saint-Philippe,RE,-21.3585,55.7679,72.99,82,38,10.94,light rain
23,San Policarpo,PH,12.1791,125.5072,81.16,80,100,8.75,overcast clouds
24,Santarem,BR,-2.4431,-54.7083,73.53,94,100,2.3,moderate rain
25,Nicoya,CR,10.1483,-85.452,82.29,74,97,6.06,overcast clouds
26,Houma,US,29.5958,-90.7195,89.6,64,40,14.97,scattered clouds
27,Arraial Do Cabo,BR,-22.9661,-42.0278,71.56,78,40,10.36,scattered clouds
28,Lakeside,US,30.13,-81.7682,94.93,51,40,9.22,scattered clouds
29,Ushuaia,AR,-54.8,-68.3,47.86,57,40,12.66,scattered clouds
30,Norman Wells,CA,65.282,-126.8329,51.84,54,75,5.75,broken clouds
31,Jamestown,US,42.097,-79.2353,69.51,84,100,13.8,overcast clouds
32,Xam Nua,LA,20.4197,104.0439,68.09,100,100,1.77,overcast clouds
33,Chokurdakh,RU,70.6333,147.9167,33.71,98,100,3.91,overcast clouds
34,Kodiak,US,57.79,-152.4072,45.91,76,100,14.97,overcast clouds
35,Labrea,BR,-7.2586,-64.7981,86.59,42,40,1.39,scattered clouds
36,Preston,GB,53.7667,-2.7167,58.98,92,38,16.58,scattered clouds
37,General Pico,AR,-35.6566,-63.7568,68.34,23,100,4.5,overcast clouds
38,Mataura,NZ,-46.1927,168.8643,46.47,90,100,13.53,overcast clouds
39,Kamina,CD,-8.7386,24.9906,68.13,63,63,2.04,broken clouds
40,Bambous Virieux,MU,-20.3428,57.7575,76.21,88,75,5.75,broken clouds
41,Pouebo,NC,-20.4,164.5667,74.82,85,4,9.66,clear sky
42,New Norfolk,AU,-42.7826,147.0587,42.3,85,10,2.3,clear sky
43,Kirakira,SB,-10.4544,161.9205,78.85,83,13,2.24,few clouds
44,Pevek,RU,69.7008,170.3133,32.74,97,77,5.35,broken clouds
45,Mar Del Plata,AR,-38.0023,-57.5575,63.95,57,0,18.41,clear sky
46,Hermanus,ZA,-34.4187,19.2345,51.8,69,13,2.64,few clouds
47,Gat,IL,31.61,34.7642,82.4,42,96,8.68,overcast clouds
48,Baykit,RU,61.67,96.37,47.88,92,51,3.0,broken clouds
49,Nikolskoye,RU,59.7035,30.7861,48.09,71,97,6.17,overcast clouds
50,Coihaique,CL,-45.5752,-72.0662,47.01,81,75,5.75,broken clouds
51,Lasa,IT,46.6166,10.7002,61.21,93,100,5.35,overcast clouds
52,Codrington,AU,-38.2667,141.9667,43.14,91,12,6.31,few clouds
53,Karratha,AU,-20.7377,116.8463,76.12,73,99,7.23,light rain
54,Isla Aguada,MX,18.7833,-91.4667,90.46,59,18,6.6,few clouds
55,Batagay,RU,67.6333,134.6333,33.6,88,19,2.82,few clouds
56,Cape Town,ZA,-33.9258,18.4232,57.61,77,0,5.75,clear sky
57,Iqaluit,CA,63.7506,-68.5145,29.93,92,100,9.22,light snow
58,Yulara,AU,-25.2406,130.9889,54.37,66,9,9.28,clear sky
59,Pacific Grove,US,36.6177,-121.9166,73.24,73,27,7.0,scattered clouds
60,Khatanga,RU,71.9667,102.5,28.35,87,100,9.6,overcast clouds
61,Jalu,LY,29.0331,21.5482,75.56,22,0,19.39,clear sky
62,Manokwari,ID,-0.8667,134.0833,78.03,82,17,2.21,few clouds
63,Crib Point,AU,-38.35,145.2,44.6,84,0,5.68,clear sky
64,Cabo San Lucas,MX,22.8909,-109.9124,84.61,57,3,14.34,clear sky
65,Kushmurun,KZ,52.4503,64.6311,55.18,87,100,9.98,light rain
66,Henties Bay,NA,-22.116,14.2845,57.43,79,0,22.95,clear sky
67,Anadyr,RU,64.75,177.4833,32.5,93,100,2.24,overcast clouds
68,Alofi,NU,-19.0595,-169.9187,67.89,100,66,1.14,broken clouds
69,Carnarvon,AU,-24.8667,113.6333,69.73,68,0,15.95,clear sky
70,Pitimbu,BR,-7.4706,-34.8086,86.59,78,70,7.87,broken clouds
71,Ozinki,RU,51.1786,49.6769,46.04,85,100,16.58,overcast clouds
72,Saskylakh,RU,71.9167,114.0833,27.81,94,100,1.1,overcast clouds
73,Guerrero Negro,MX,27.9769,-114.0611,72.28,49,0,7.85,clear sky
74,Muros,ES,42.7762,-9.0603,74.68,59,64,12.24,broken clouds
75,Atuona,PF,-9.8,-139.0333,77.2,68,1,10.63,clear sky
76,Viedma,AR,-40.8135,-62.9967,65.14,28,100,12.17,overcast clouds
77,Faridpur,BD,23.6,89.8333,80.98,84,0,7.9,clear sky
78,Beringovskiy,RU,63.05,179.3167,33.69,92,87,3.98,overcast clouds
79,Severo-Kurilsk,RU,50.6789,156.125,42.89,89,100,6.82,overcast clouds
80,Bredasdorp,ZA,-34.5322,20.0403,52.63,75,7,4.74,clear sky
81,Dikson,RU,73.5069,80.5464,28.53,82,100,4.18,overcast clouds
82,Launceston,AU,-41.45,147.1667,43.16,94,75,4.61,broken clouds
83,Mehamn,NO,71.0357,27.8492,37.31,78,98,17.92,overcast clouds
84,Sitka,US,57.0531,-135.33,62.01,47,0,3.02,clear sky
85,Castro,BR,-24.7911,-50.0119,59.47,54,0,5.95,clear sky
86,Provideniya,RU,64.3833,-173.3,45.66,59,13,11.16,few clouds
87,Miguel Hidalgo,MX,19.4225,-99.2028,79.43,21,80,5.91,broken clouds
88,Turayf,SA,31.6725,38.6637,82.65,17,0,8.05,clear sky
89,Bengkulu,ID,-3.8004,102.2655,76.08,87,65,3.74,broken clouds
90,Dunedin,NZ,-45.8742,170.5036,47.8,69,55,21.0,broken clouds
91,Taurage,LT,55.2522,22.2897,51.08,97,100,7.78,overcast clouds
92,Tasiilaq,GL,65.6145,-37.6368,37.56,77,23,2.28,few clouds
93,Isangel,VU,-19.55,169.2667,77.65,87,100,21.74,light rain
94,Yenagoa,NG,4.9247,6.2642,77.49,91,99,5.99,overcast clouds
95,Qaanaaq,GL,77.484,-69.3632,18.7,74,13,3.44,few clouds
96,Antofagasta,CL,-23.65,-70.4,67.86,63,23,7.92,few clouds
97,Southampton,GB,50.904,-1.4043,60.01,80,75,13.8,broken clouds
98,Hithadhoo,MV,-0.6,73.0833,83.23,72,31,9.57,scattered clouds
99,East London,ZA,-33.0153,27.9116,60.67,84,100,11.92,moderate rain
100,Yuncheng,CN,35.0231,110.9928,67.44,38,100,5.55,overcast clouds
101,Chuy,UY,-33.6971,-53.4616,61.03,55,5,7.72,clear sky
102,Togur,RU,58.3631,82.8265,53.26,79,67,15.5,light rain
103,Barrow,US,71.2906,-156.7887,30.22,100,100,12.66,fog
104,Talnakh,RU,69.4865,88.3972,40.51,84,100,7.11,light rain
105,Yar-Sale,RU,66.8333,70.8333,33.64,92,100,22.5,light snow
106,Qaqortoq,GL,60.7167,-46.0333,40.53,75,22,3.8,few clouds
107,Waingapu,ID,-9.6567,120.2641,77.29,83,82,8.23,broken clouds
108,Ribeira Grande,PT,38.5167,-28.7,63.0,94,75,3.44,mist
109,Narasannapeta,IN,18.4167,84.05,83.79,79,100,13.4,overcast clouds
110,Tiksi,RU,71.6872,128.8694,30.52,85,100,7.43,overcast clouds
111,Ojinaga,MX,29.5667,-104.4167,94.57,16,0,6.91,clear sky
112,Flinders,AU,-34.5833,150.8552,56.17,91,93,1.99,light rain
113,Mahebourg,MU,-20.4081,57.7,76.24,72,26,15.9,scattered clouds
114,Bluff,NZ,-46.6,168.3333,47.8,76,100,31.18,overcast clouds
115,Hami,CN,42.8,93.45,73.15,32,1,18.84,clear sky
116,Puerto Vallarta,MX,20.6204,-105.2307,92.25,32,3,7.61,clear sky
117,Hamilton,US,39.1834,-84.5333,88.92,53,95,5.01,overcast clouds
118,Te Anau,NZ,-45.4167,167.7167,42.82,84,100,4.74,overcast clouds
119,Lendava,SI,46.5649,16.4509,69.94,21,2,6.02,clear sky
120,Lazaro Cardenas,MX,17.9583,-102.2,83.75,52,86,11.83,overcast clouds
121,Lewisporte,CA,49.2499,-55.0482,58.71,37,0,6.87,clear sky
122,Rotenburg,DE,53.1167,9.4,63.32,89,100,17.63,light rain
123,Dudinka,RU,69.4058,86.1778,40.86,89,100,14.79,light rain
124,Longyearbyen,SJ,78.2186,15.6401,33.64,64,75,12.66,broken clouds
125,Itarema,BR,-2.9248,-39.9167,82.56,77,100,6.6,overcast clouds
126,Tsabong,BW,-26.0217,22.401,44.58,85,100,13.09,moderate rain
127,Kahului,US,20.8947,-156.47,84.22,54,40,4.61,scattered clouds
128,Derzhavinsk,KZ,51.1,66.3167,61.93,72,100,11.18,overcast clouds
129,Muscat,OM,23.6139,58.5922,96.17,33,6,7.18,clear sky
130,Ormara,PK,25.2088,64.6357,81.82,91,0,13.8,clear sky
131,Edd,ER,13.9297,41.6925,87.1,61,99,5.79,overcast clouds
132,Tuktoyaktuk,CA,69.4541,-133.0374,33.1,89,97,2.95,overcast clouds
133,Hobart,AU,-42.8794,147.3294,42.66,92,100,4.61,overcast clouds
134,Sindor,RU,62.8629,51.8905,37.0,62,100,9.84,overcast clouds
135,Ilulissat,GL,69.2167,-51.1,37.42,70,40,9.22,scattered clouds
136,Pedra Azul,BR,-16.0053,-41.2972,79.23,17,100,6.22,overcast clouds
137,Maceio,BR,-9.6658,-35.7353,76.44,83,75,6.91,broken clouds
138,Kalmunai,LK,7.4167,81.8167,82.26,72,95,5.59,overcast clouds
139,Moron,AR,-34.6534,-58.6198,65.95,55,26,6.91,scattered clouds
140,Grindavik,IS,63.8424,-22.4338,54.07,76,75,6.91,light rain
141,Geraldton,AU,-28.7667,114.6,54.01,94,0,9.22,clear sky
142,Port Lincoln,AU,-34.7333,135.8667,56.59,63,0,12.39,clear sky
143,Kaele,CM,10.1092,14.4508,92.1,34,87,8.39,overcast clouds
144,Russell,US,32.3502,-85.1999,89.91,45,20,6.91,few clouds
145,Vaini,TO,-21.2,-175.2,77.13,66,99,10.56,overcast clouds
146,Chilliwack,CA,49.1747,-121.9443,65.35,53,71,4.03,broken clouds
147,Outjo,NA,-20.1167,16.15,50.07,16,0,9.86,clear sky
148,Kloulklubed,PW,7.0419,134.2556,82.72,77,94,12.08,overcast clouds
149,Dingle,PH,10.9995,122.6711,77.14,92,100,5.06,light rain
150,Georgetown,MY,5.4112,100.3354,82.33,78,20,0.0,few clouds
151,Puerto Ayora,EC,-0.7393,-90.3518,76.55,91,87,4.0,overcast clouds
152,Ibra,OM,22.6906,58.5334,86.56,34,3,4.99,clear sky
153,Ponta Do Sol,PT,32.6667,-17.1,71.01,80,61,1.74,broken clouds
154,Bani Walid,LY,31.7566,13.9942,68.29,46,0,15.99,clear sky
155,Juneau,US,58.3019,-134.4197,60.84,71,4,3.98,clear sky
156,Banda Aceh,ID,5.5577,95.3222,80.73,80,100,9.28,overcast clouds
157,Cidreira,BR,-30.1811,-50.2056,61.84,63,0,8.03,clear sky
158,Malakal,SS,9.5334,31.6605,87.08,49,100,4.65,overcast clouds
159,Rosetta,EG,31.4044,30.4164,68.77,84,0,14.61,clear sky
160,Vilhena,BR,-12.7406,-60.1458,78.6,29,100,1.32,overcast clouds
161,Airai,TL,-8.9266,125.4092,57.72,91,48,3.91,scattered clouds
162,Upernavik,GL,72.7868,-56.1549,30.0,77,93,13.44,overcast clouds
163,Alice Springs,AU,-23.7,133.8833,42.35,93,0,0.0,clear sky
164,Turkistan,KZ,43.0,68.0,76.87,32,0,7.25,clear sky
165,Vestmannaeyjar,IS,63.4427,-20.2734,50.99,87,75,5.75,broken clouds
166,Port Blair,IN,11.6667,92.75,83.26,79,100,17.74,overcast clouds
167,Matara,LK,5.9485,80.5353,77.56,92,30,8.41,scattered clouds
168,Cotonou,BJ,6.3654,2.4183,80.67,83,92,9.8,light rain
169,Victoria,HK,22.2855,114.1577,79.18,86,2,1.01,clear sky
170,Kavieng,PG,-2.5744,150.7967,81.43,78,86,10.58,light rain
171,Coquimbo,CL,-29.9533,-71.3436,64.47,66,100,9.35,overcast clouds
172,Haines Junction,CA,60.7522,-137.5108,53.62,53,1,1.5,clear sky
173,Aykhal,RU,66.0,111.5,34.14,95,100,0.89,overcast clouds
174,Port Alfred,ZA,-33.5906,26.891,61.77,73,100,7.29,light rain
175,Charlestown,AU,-32.95,151.6667,57.72,96,82,4.0,light rain
176,Goundi,TD,9.3627,17.366,86.29,51,88,9.91,overcast clouds
177,Kualakapuas,ID,-3.0091,114.3876,75.11,95,100,0.65,overcast clouds
178,Fortuna,US,40.5982,-124.1573,65.86,57,0,14.97,clear sky
179,Xuanwu,CN,32.069,118.8138,64.17,82,80,3.44,broken clouds
180,Terney,RU,45.0503,136.6092,45.1,96,41,3.18,scattered clouds
181,Kelapa Sawit,MY,1.6698,103.5327,76.24,91,27,1.79,scattered clouds
182,Vrangel,RU,42.7297,133.0839,51.35,86,16,1.3,few clouds
183,Hambantota,LK,6.1241,81.1185,79.14,100,20,6.91,few clouds
184,Areosa,PT,41.7178,-8.8571,70.54,65,99,14.16,overcast clouds
185,Lebu,CL,-37.6167,-73.65,54.88,84,27,8.86,scattered clouds
186,Ngunguru,NZ,-35.6167,174.5,55.45,67,17,12.97,few clouds
187,Salalah,OM,17.0151,54.0924,81.23,81,21,2.84,few clouds
188,Lompoc,US,34.6391,-120.4579,72.7,66,8,7.0,clear sky
189,Miles City,US,46.4083,-105.8406,43.77,70,100,28.77,overcast clouds
190,Kamenka,RU,51.3223,42.7678,41.02,77,11,6.85,few clouds
191,Caravelas,BR,-17.7125,-39.2481,72.91,62,0,6.4,clear sky
192,Boende,CD,-0.2167,20.8667,70.93,99,100,1.88,overcast clouds
193,Payakumbuh,ID,-0.2202,100.6308,71.38,97,100,3.15,light rain
194,Vanavara,RU,60.34,102.2797,49.71,89,100,4.32,overcast clouds
195,Sao Joao Da Barra,BR,-21.6403,-41.0511,73.69,55,61,11.43,broken clouds
196,Camocim,BR,-2.9022,-40.8411,82.2,79,81,5.08,moderate rain
197,Umm Kaddadah,SD,13.6017,26.6876,87.67,9,22,12.73,few clouds
198,Bereda,ES,43.2686,-7.5406,63.41,76,93,6.35,overcast clouds
199,Lorengau,PG,-2.0226,147.2712,81.01,79,100,8.34,overcast clouds
200,Manadhoo,MV,5.7667,73.3833,83.05,78,60,14.34,broken clouds
201,Lavrentiya,RU,65.5833,-171.0,34.38,91,72,6.73,broken clouds
202,Ahipara,NZ,-35.1667,173.1667,57.33,66,97,14.81,overcast clouds
203,Luanda,AO,-8.8368,13.2343,72.95,86,0,11.25,clear sky
204,Mount Isa,AU,-20.7333,139.5,65.97,68,0,9.22,clear sky
205,Namatanai,PG,-3.6667,152.4333,78.58,82,30,5.5,scattered clouds
206,Calabozo,VE,8.9242,-67.4293,92.17,38,34,10.49,scattered clouds
207,Miyako,JP,39.6367,141.9525,57.45,60,98,5.37,overcast clouds
208,Nabire,ID,-3.3667,135.4833,75.33,91,44,2.98,scattered clouds
209,Mountain Home,US,43.133,-115.6912,56.62,31,13,11.63,few clouds
210,Champerico,GT,14.3,-91.9167,85.93,65,100,7.83,overcast clouds
211,Nome,US,64.5011,-165.4064,60.12,50,31,13.69,scattered clouds
212,Oistins,BB,13.0667,-59.5333,80.85,69,31,17.4,scattered clouds
213,Ginda,IN,30.6945,78.4932,64.33,30,0,8.43,clear sky
214,Darnah,LY,32.767,22.6367,64.63,70,0,20.11,clear sky
215,Darayya,SY,33.459,36.2374,74.16,25,10,3.71,clear sky
216,Sao Filipe,CV,14.8961,-24.4956,74.16,73,17,10.78,few clouds
217,Cherskiy,RU,68.75,161.3,48.29,61,6,16.13,clear sky
218,Kasongo-Lunda,CD,-6.4667,16.8167,75.63,63,97,0.98,overcast clouds
219,Nuristan,AF,35.3,70.8333,37.2,68,85,9.4,overcast clouds
220,Sabzevar,IR,36.2126,57.6819,76.98,21,0,7.81,clear sky
221,Povenets,RU,62.8487,34.8262,37.51,73,94,6.06,overcast clouds
222,Kavaratti,IN,10.5669,72.642,82.51,78,100,10.11,overcast clouds
223,Kudahuvadhoo,MV,2.6708,72.8944,83.52,75,25,12.62,scattered clouds
224,College,US,64.8569,-147.8028,62.1,44,6,1.99,clear sky
225,Dapaong,TG,10.8639,0.205,83.57,53,90,16.71,overcast clouds
226,Lagoa,PT,39.05,-27.9833,61.18,92,100,14.65,light rain
227,Sembe,CG,1.6481,14.5806,71.96,99,100,5.1,heavy intensity rain
228,Smoky Lake,CA,54.1169,-112.4686,45.16,37,100,14.12,overcast clouds
229,Pangnirtung,CA,66.1451,-65.7125,35.1,89,100,1.88,overcast clouds
230,Torbay,CA,47.6666,-52.7314,53.89,63,100,10.2,overcast clouds
231,Maragogi,BR,-9.0122,-35.2225,79.92,83,64,6.22,broken clouds
232,Maningrida,AU,-12.0667,134.2667,72.81,88,0,8.86,clear sky
233,Maarianhamina,AX,60.0973,19.9348,49.86,57,0,1.14,clear sky
234,Sartana,UA,47.1744,37.6927,57.72,73,62,9.48,broken clouds
235,Chegdomyn,RU,51.1167,133.0167,44.8,96,100,1.05,light rain
236,Komsomolskiy,UZ,40.4272,71.7189,68.72,56,33,4.61,scattered clouds
237,Lodwar,KE,3.1191,35.5973,89.26,36,88,18.21,overcast clouds
238,Egvekinot,RU,66.3167,-179.1667,34.5,79,79,3.0,broken clouds
239,Bandarbeyla,SO,9.4942,50.8122,80.91,84,99,19.98,overcast clouds
240,Damara,CF,4.9608,18.7035,72.48,85,100,3.27,overcast clouds
241,Emerald,AU,-23.5333,148.1667,60.94,100,100,11.5,overcast clouds
242,Erdenet,MN,49.0333,104.0833,58.21,43,10,1.68,clear sky
243,Cockburn Town,TC,21.4612,-71.1419,84.16,70,75,11.5,broken clouds
244,Mier,MX,26.4333,-99.15,107.64,16,43,10.33,scattered clouds
245,Ostrovnoy,RU,68.0531,39.5131,31.68,69,99,7.05,overcast clouds
246,Beyneu,KZ,45.3167,55.2,61.02,56,68,15.97,broken clouds
247,Awjilah,LY,29.1081,21.2869,76.15,21,0,17.27,clear sky
248,Turmalina,BR,-17.2856,-42.73,76.32,18,1,1.68,clear sky
249,Padang,ID,-0.9492,100.3543,77.52,88,29,3.4,scattered clouds
250,Seydi,TM,39.4816,62.9137,81.99,16,0,5.35,clear sky
251,Wajid,SO,3.8093,43.2471,78.44,66,90,10.54,overcast clouds
252,Krasnoselkup,RU,65.7,82.4667,47.39,79,100,11.77,overcast clouds
253,Margate,GB,51.3813,1.3862,57.87,77,79,5.01,broken clouds
254,Riyadh,SA,24.6877,46.7219,96.94,10,0,6.13,clear sky
255,Okhotsk,RU,59.3833,143.3,34.07,93,98,2.62,overcast clouds
256,Tautira,PF,-17.7333,-149.15,79.38,73,12,9.51,light rain
257,Pochutla,MX,15.7432,-96.4661,94.82,34,90,13.38,overcast clouds
258,Port Elizabeth,ZA,-33.918,25.5701,57.49,97,100,7.0,heavy intensity rain
259,Bethel,US,41.3712,-73.414,74.17,75,20,12.66,few clouds
260,Kungurtug,RU,50.5994,97.5228,50.83,88,100,3.09,overcast clouds
261,Laguna,US,38.421,-121.4238,76.08,20,0,24.16,clear sky
262,Avarua,CK,-21.2078,-159.775,77.05,73,75,6.91,broken clouds
263,Molochnoye,RU,59.2917,39.6787,33.75,78,7,6.24,clear sky
264,Saint George,US,37.1041,-113.5841,72.25,14,0,8.01,clear sky
265,Half Moon Bay,US,37.4636,-122.4286,77.88,29,0,14.97,clear sky
266,Muzhi,RU,65.3667,64.6667,32.2,98,100,19.3,snow
267,Lamar,US,33.6668,-95.5836,91.63,62,75,21.85,broken clouds
268,Pombas,CV,17.1503,-25.0201,73.18,80,96,14.5,overcast clouds
269,Mnisek Pod Brdy,CZ,49.8665,14.2618,74.98,65,17,7.34,heavy intensity rain
270,Aklavik,CA,68.2191,-135.0107,43.11,75,100,1.32,overcast clouds
271,Ossora,RU,59.2353,163.0719,34.7,99,100,1.92,overcast clouds
272,Vila Franca Do Campo,PT,37.7167,-25.4333,64.81,70,91,5.97,overcast clouds
273,Rawson,AR,-43.3002,-65.1023,66.99,36,32,18.97,scattered clouds
274,Clarksburg,US,39.2807,-80.3445,86.11,62,100,13.18,overcast clouds
275,Verkhnevilyuysk,RU,63.4453,120.3167,41.95,78,90,1.43,overcast clouds
276,Lata,PT,40.1629,-8.3327,76.77,46,100,6.04,overcast clouds
277,Tuatapere,NZ,-46.1333,167.6833,45.57,84,92,17.81,overcast clouds
278,Baherden,TM,38.4362,57.4316,84.76,22,0,4.14,clear sky
279,Luau,AO,-10.7073,22.2247,66.6,47,0,2.75,clear sky
280,Zaozerne,UA,45.1582,33.2787,58.53,69,21,11.05,few clouds
281,Makat,KZ,47.6469,53.3463,54.3,75,93,15.77,light rain
282,Carballo,ES,43.213,-8.691,71.02,83,31,7.65,scattered clouds
283,San Patricio,US,28.017,-97.5169,92.12,45,10,22.5,clear sky
284,Altay,CN,47.8667,88.1167,58.91,56,4,6.46,clear sky
285,Vila Velha,BR,-20.3297,-40.2925,75.15,53,0,14.97,clear sky
286,Avera,US,33.194,-82.5271,91.45,32,100,13.24,overcast clouds
287,Balkanabat,TM,39.5108,54.3671,73.33,46,100,16.49,overcast clouds
288,Mbandaka,CD,0.0487,18.2603,70.99,97,100,0.6,overcast clouds
289,Phan Thiet,VN,10.9333,108.1,77.92,93,100,6.71,heavy intensity rain
290,Oxford,GB,51.7522,-1.256,60.06,76,20,18.41,few clouds
291,Sakaiminato,JP,35.55,133.2333,63.0,67,100,4.54,overcast clouds
292,Souillac,MU,-20.5167,57.5167,74.75,78,5,14.23,clear sky
293,Coahuayana,MX,18.7333,-103.6833,90.0,38,3,8.28,clear sky
294,Goksun,TR,38.021,36.4973,47.57,59,0,7.9,clear sky
295,Buala,SB,-8.145,159.5921,79.63,79,23,3.69,few clouds
296,Port-Gentil,GA,-0.7193,8.7815,80.56,83,40,12.66,scattered clouds
297,Stornoway,GB,58.2093,-6.3865,53.92,88,40,11.5,scattered clouds
298,Faanui,PF,-16.4833,-151.75,80.71,71,19,10.76,few clouds
299,Kosikha,RU,53.3617,84.5822,57.2,51,38,8.23,scattered clouds
300,Akim Swedru,GH,5.8938,-1.0164,76.21,92,63,4.47,broken clouds
301,Farah,AF,32.5,62.5,76.03,16,0,6.24,clear sky
302,Nelson Bay,AU,-32.7167,152.15,57.99,99,56,1.01,moderate rain
303,Poshekhonye,RU,58.4993,39.1353,36.1,78,10,5.82,clear sky
304,Tanabe,JP,33.7333,135.3667,62.4,81,100,5.12,light rain
305,Springbok,ZA,-29.6643,17.8865,40.69,93,29,6.58,scattered clouds
306,Doha,QA,25.2867,51.5333,98.58,17,0,13.8,clear sky
307,Jumla,NP,29.2747,82.1838,54.12,74,54,2.82,broken clouds
308,Bardiyah,LY,31.7561,25.0865,64.65,60,0,10.56,clear sky
309,Lamu,KE,-2.2717,40.902,80.82,84,21,11.03,few clouds
310,Beaverlodge,CA,55.2166,-119.4361,47.3,33,12,5.48,few clouds
311,Riachao Das Neves,BR,-11.7461,-44.91,88.61,24,100,4.5,overcast clouds
312,Bayir,TR,37.2687,28.2167,59.52,63,9,2.59,clear sky
313,Belaya Gora,RU,68.5333,146.4167,43.56,78,9,10.96,clear sky
314,Urengoy,RU,65.9667,78.3667,43.95,78,100,11.25,overcast clouds
315,Dallas,US,32.7668,-96.7836,93.94,55,20,23.02,few clouds
316,Nanortalik,GL,60.1432,-45.2371,39.43,80,61,7.34,broken clouds
317,Itoman,JP,26.1247,127.6694,75.22,88,100,17.27,overcast clouds
318,Monticello,US,45.3055,-93.7941,66.38,48,20,19.57,few clouds
319,Port Hedland,AU,-20.3167,118.5667,73.45,100,100,4.61,overcast clouds
320,Mackenzie,CA,55.2999,-123.1698,53.24,27,100,7.96,overcast clouds
321,Severnyy,RU,50.677,36.5532,59.04,44,0,2.24,clear sky
322,Rosarito,MX,32.3333,-117.0333,68.41,72,80,15.79,broken clouds
323,Jinji,CN,23.2281,110.8261,72.99,95,88,2.26,overcast clouds
324,Kruisfontein,ZA,-34.0033,24.7314,54.88,89,100,5.48,light rain
325,Husavik,IS,66.0449,-17.3389,54.0,61,98,12.44,overcast clouds
326,Srednekolymsk,RU,67.45,153.6833,50.61,59,35,8.75,scattered clouds
327,Fasa,IR,28.9383,53.6482,80.91,10,0,8.32,clear sky
328,Esperance,AU,-33.8667,121.9,61.29,70,70,6.46,broken clouds
329,Shu,KZ,43.5983,73.7614,65.34,64,100,8.03,overcast clouds
330,Barcelos,PT,41.5388,-8.6151,80.85,55,100,6.62,overcast clouds
331,Mitsamiouli,KM,-11.3847,43.2844,80.4,70,9,8.59,clear sky
332,Villazon,BO,-22.0866,-65.5942,58.62,9,67,4.18,broken clouds
333,Fort Nelson,CA,58.8053,-122.7002,56.86,22,46,3.38,scattered clouds
334,Kiruna,SE,67.8557,20.2251,50.92,50,0,3.44,clear sky
335,Leningradskiy,RU,69.3833,178.4167,32.25,93,23,5.64,few clouds
336,Srivardhan,IN,18.0333,73.0167,81.82,82,100,5.88,overcast clouds
337,Miraflores,MX,19.2167,-98.8083,81.25,24,55,3.09,broken clouds
338,San Andres,CO,12.5847,-81.7006,87.82,70,75,6.91,broken clouds
339,Aksu,CN,41.1231,80.2644,77.07,26,100,7.94,overcast clouds
340,Kimberley,ZA,-28.7323,24.7623,51.96,88,100,19.19,light rain
341,Berlevag,NO,70.8578,29.0864,37.35,75,100,12.66,overcast clouds
342,Clyde River,CA,70.4692,-68.5914,24.58,75,100,10.38,overcast clouds
343,Gangapur,IN,26.4833,76.7167,98.74,14,17,10.16,few clouds
344,Anori,BR,-3.7728,-61.6442,85.46,53,59,1.1,broken clouds
345,Chicago,US,41.85,-87.65,83.28,56,100,18.41,overcast clouds
346,Labytnangi,RU,66.6572,66.4183,37.31,65,100,22.59,light rain
347,Tongliao,CN,43.6125,122.2653,64.42,39,98,5.26,overcast clouds
348,Morondava,MG,-20.2833,44.2833,74.62,72,0,8.77,clear sky
349,Grootfontein,NA,-19.5667,18.1167,54.41,13,0,10.36,clear sky
350,Bilma,NE,18.6853,12.9164,93.04,14,82,9.84,broken clouds
351,Asau,RO,46.4333,26.4,70.72,61,100,7.0,overcast clouds
352,Yichun,CN,47.7,128.9,49.19,97,100,2.1,overcast clouds
353,Taltal,CL,-25.4,-70.4833,67.48,60,100,3.38,overcast clouds
354,Chebsara,RU,59.2002,38.8356,42.13,77,6,5.93,clear sky
355,Netanya,IL,32.3329,34.8599,78.94,58,23,15.68,few clouds
356,Naberera,TZ,-4.2,36.9333,60.49,84,98,9.55,overcast clouds
357,Juegang,CN,32.3174,121.1855,64.9,95,1,5.53,clear sky
358,Klaksvik,FO,62.2266,-6.589,49.12,98,100,17.25,overcast clouds
359,Podporozhye,RU,60.9112,34.1706,36.57,75,14,4.32,few clouds
360,Bulawayo,ZW,-20.15,28.5833,62.69,51,75,3.76,broken clouds
361,Beaverton,US,45.4871,-122.8037,57.54,64,100,3.44,overcast clouds
362,Mangrol,IN,21.1167,70.1167,82.63,76,5,15.43,clear sky
363,Hit,IQ,33.6416,42.8251,83.98,18,100,16.75,overcast clouds
364,Gushikawa,JP,26.3544,127.8686,74.43,94,100,18.41,overcast clouds
365,Payo,ID,-3.7508,103.6372,72.84,95,96,2.28,overcast clouds
366,Mao,ES,39.8885,4.2658,70.36,68,0,8.05,clear sky
367,Pisco,PE,-13.7,-76.2167,69.85,73,46,6.91,scattered clouds
368,Thompson,CA,55.7435,-97.8558,38.08,60,100,11.9,overcast clouds
369,Mount Gambier,AU,-37.8333,140.7667,43.07,93,24,5.61,few clouds
370,Siocon,PH,7.7061,122.1353,79.52,84,100,0.83,light rain
371,Luderitz,NA,-26.6481,15.1594,53.8,70,0,13.76,clear sky
372,Namibe,AO,-15.1961,12.1522,69.19,67,26,8.66,scattered clouds
373,Gravdal,NO,68.1214,13.5031,44.49,100,100,6.91,fog
374,Narsaq,GL,60.9167,-46.05,52.02,64,15,5.61,few clouds
375,Hofn,IS,64.2539,-15.2082,50.02,87,100,12.66,mist
376,Richards Bay,ZA,-28.783,32.0377,69.12,87,76,5.39,light rain
377,Araouane,ML,18.9048,-3.5265,96.51,8,60,8.32,broken clouds
378,Parana,AR,-31.732,-60.5238,70.57,48,1,11.1,clear sky
379,Mecca,SA,21.4267,39.8261,93.31,19,0,6.6,clear sky
380,Nguruka,TZ,-5.1092,31.0419,67.84,62,98,3.38,overcast clouds
381,Antalaha,MG,-14.9003,50.2788,71.82,89,32,8.48,light rain
382,Shimoda,JP,34.6667,138.95,66.18,86,100,4.88,moderate rain
383,Vaitape,PF,-16.5167,-151.75,80.73,71,19,10.85,few clouds
384,Oranjemund,NA,-28.55,16.4333,54.28,84,0,7.34,clear sky
385,Thinadhoo,MV,0.5333,72.9333,83.57,73,39,10.49,scattered clouds
386,Poum,NC,-20.2333,164.0167,77.22,83,0,10.74,clear sky
387,Tupik,RU,54.4253,119.9327,40.01,86,13,1.45,few clouds
388,Kieta,PG,-6.2167,155.6333,78.39,85,43,3.04,light rain
389,Solnechnyy,RU,50.7214,136.6319,43.61,99,100,3.15,light rain
390,Kushiro,JP,42.975,144.3747,47.12,92,4,5.91,clear sky
391,Hirara,JP,24.8,125.2833,75.0,82,71,16.02,broken clouds
392,Benguela,AO,-12.5763,13.4055,71.6,76,86,4.45,overcast clouds
393,Diffa,NE,13.3154,12.6113,91.63,12,13,7.54,few clouds
394,Santa Marta,CO,11.2408,-74.199,84.04,74,88,6.53,overcast clouds
395,Inongo,CD,-1.95,18.2667,70.23,97,99,1.97,overcast clouds
396,Pauini,BR,-7.7136,-66.9764,86.07,43,99,0.76,overcast clouds
397,Juruti,BR,-2.1522,-56.0922,75.29,90,99,2.44,overcast clouds
398,Aracati,BR,-4.5617,-37.7697,83.82,70,100,7.16,overcast clouds
399,Madras,IN,13.0878,80.2785,85.98,85,20,10.36,mist
400,Comodoro Rivadavia,AR,-45.8667,-67.5,51.66,71,0,2.3,clear sky
401,Komsomolets,KZ,53.7453,62.0708,48.25,73,100,10.78,light rain
402,Santa Isabel Do Rio Negro,BR,-0.4139,-65.0192,76.6,82,94,2.42,overcast clouds
403,Hokitika,NZ,-42.7167,170.9667,46.31,90,100,6.17,overcast clouds
404,Birjand,IR,32.8663,59.2211,73.6,21,0,7.14,clear sky
405,Korla,CN,41.7597,86.1469,75.52,24,97,8.34,overcast clouds
406,North Bend,US,43.4065,-124.2243,62.24,74,0,21.85,clear sky
407,Roald,NO,62.5833,6.1333,57.16,76,92,14.97,fog
408,Sioux Lookout,CA,50.1001,-91.917,35.69,98,100,10.65,overcast clouds
409,Natchez,US,31.5604,-91.4032,90.84,53,40,17.27,scattered clouds
410,Hualmay,PE,-11.0964,-77.6139,69.15,79,43,10.13,scattered clouds
411,Chapais,CA,49.7834,-74.8492,49.78,72,100,15.66,overcast clouds
412,Saint-Joseph,RE,-21.3667,55.6167,71.98,81,25,11.18,light rain
413,Biloli,IN,18.7667,77.7333,82.53,63,100,18.59,overcast clouds
414,Sur,OM,22.5667,59.5289,91.71,43,1,12.15,clear sky
415,Vao,NC,-22.6667,167.4833,74.07,88,100,28.14,overcast clouds
416,San Cristobal,VE,7.7669,-72.225,82.58,43,23,9.46,few clouds
417,Opuwo,NA,-18.0607,13.84,58.26,27,0,5.14,clear sky
418,Domoni,KM,-12.2569,44.5319,77.11,82,17,4.18,few clouds
419,Yeppoon,AU,-23.1333,150.7333,62.38,94,100,22.01,overcast clouds
420,Kamaishi,JP,39.2667,141.8833,59.13,63,100,4.79,overcast clouds
421,Harda,IN,22.3333,77.1,96.8,22,3,15.35,clear sky
422,Ketchikan,US,55.3422,-131.6461,57.67,62,0,10.36,clear sky
423,Marsa Matruh,EG,31.3525,27.2453,65.34,61,0,12.66,clear sky
424,Roebourne,AU,-20.7833,117.1333,76.26,73,88,6.24,overcast clouds
425,Moranbah,AU,-22.0016,148.0466,61.07,93,100,22.44,overcast clouds
426,Westport,US,41.1415,-73.3579,71.15,91,20,12.66,few clouds
427,Kuandian,CN,40.7286,124.7847,50.4,94,1,1.34,clear sky
428,Miramar,US,25.9873,-80.2323,91.4,72,75,19.57,thunderstorm
429,Ballina,AU,-28.8667,153.5667,60.78,81,100,15.66,moderate rain
430,Olafsvik,IS,64.8945,-23.7142,50.09,76,91,9.64,overcast clouds
431,Tyukhtet,RU,56.5389,89.3011,56.55,54,84,9.75,broken clouds
432,Sungaipenuh,ID,-2.0833,101.3833,64.9,95,80,1.21,light rain
433,Maniitsoq,GL,65.4167,-52.9,37.18,57,100,2.53,overcast clouds
434,Zhigansk,RU,66.7697,123.3711,30.16,98,40,7.11,scattered clouds
435,Semirom,IR,31.4167,51.5667,62.01,27,0,3.62,clear sky
436,Lesosibirsk,RU,58.2358,92.4828,53.37,62,81,4.97,broken clouds
437,Bonthe,SL,7.5264,-12.505,80.2,82,100,8.41,overcast clouds
438,Honiara,SB,-9.4333,159.95,76.28,86,1,3.22,clear sky
439,Aykino,RU,62.2248,49.9922,36.03,68,100,8.48,overcast clouds
440,Tulare,US,36.2666,-118.8009,70.93,33,92,1.99,overcast clouds
441,Tucuman,AR,-26.8241,-65.2226,71.6,43,12,3.44,few clouds
442,Belmonte,BR,-15.8631,-38.8828,74.41,49,29,8.55,scattered clouds
443,Bandar,ID,2.05,99.75,73.31,99,98,2.42,overcast clouds
444,Acapulco,MX,16.8634,-99.8901,85.82,58,100,11.5,overcast clouds
445,Meulaboh,ID,4.1363,96.1285,77.76,87,93,2.57,overcast clouds
446,Yerbogachen,RU,61.2767,108.0108,44.56,81,100,3.78,overcast clouds
447,Vardo,NO,70.3705,31.1107,37.38,75,75,20.71,broken clouds
448,Xingyi,CN,24.1877,102.817,58.71,96,100,2.35,overcast clouds
449,Perg,AT,48.25,14.6333,77.49,69,58,3.27,broken clouds
450,Hereford,GB,52.0568,-2.7148,60.4,71,0,1.01,clear sky
451,Adrar,MR,20.5022,-10.0711,97.38,6,100,8.16,overcast clouds
452,Saint-Pierre,RE,-21.3393,55.4781,75.9,73,0,6.91,clear sky
453,High Level,CA,58.5169,-117.136,52.97,22,100,5.12,overcast clouds
454,Dehloran,IR,32.6941,47.2679,91.85,13,16,5.99,few clouds
455,Roma,US,43.2128,-75.4557,79.68,57,75,5.99,broken clouds
456,Kangaatsiaq,GL,68.3065,-53.4641,31.84,77,100,15.17,overcast clouds
457,Mayo,US,38.8876,-76.5119,91.67,68,0,14.97,haze
458,Watsa,CD,3.0372,29.5355,65.98,98,100,3.65,overcast clouds
459,Lodja,CD,-3.4833,23.4333,74.23,78,100,1.81,overcast clouds
460,San Quintin,MX,30.4833,-115.95,66.13,67,24,11.61,few clouds
461,Saint Anthony,US,45.0205,-93.218,65.01,57,20,16.11,few clouds
462,Yenangyaung,MM,20.4667,94.8833,84.4,60,100,4.14,overcast clouds
463,Senanga,ZM,-16.1167,23.2667,66.36,44,2,3.87,clear sky
464,Cholet,FR,47.1667,-1.0,65.44,70,36,9.78,scattered clouds
465,Ndende,GA,-2.4008,11.3581,73.81,96,100,4.72,light rain
466,Boquira,BR,-12.8231,-42.7306,84.78,24,32,6.71,scattered clouds
467,Glenwood Springs,US,39.5505,-107.3248,40.01,93,100,3.44,snow
468,Mercedes,AR,-34.6515,-59.4307,66.85,36,10,11.56,clear sky
469,Sao Jose Da Coroa Grande,BR,-8.8978,-35.1478,79.88,83,62,4.32,broken clouds
470,Alipur Chatha,PK,32.2688,73.819,87.46,22,0,7.27,clear sky
471,Mantua,IT,45.1667,10.7833,81.64,44,11,3.0,few clouds
472,Terrasini,IT,38.146,13.0844,69.37,72,0,11.5,clear sky
473,Orlik,RU,52.5178,99.825,51.93,87,100,3.83,light rain
474,Kununurra,AU,-15.7667,128.7333,82.38,34,5,10.36,clear sky
475,Deputatskiy,RU,69.3,139.9,27.0,98,100,1.32,overcast clouds
476,Abu Samrah,SY,35.3029,37.1841,70.93,20,0,15.08,clear sky
477,Jeremie,HT,18.65,-74.1167,86.43,60,85,4.29,overcast clouds
478,Corowa,AU,-36.0333,146.3833,33.98,67,65,5.64,broken clouds
479,Lichinga,MZ,-13.3128,35.2406,58.55,96,100,5.26,overcast clouds
480,Sept-Iles,CA,50.2001,-66.3821,55.06,66,100,7.0,overcast clouds
481,Zhicheng,CN,30.2956,111.5047,63.54,91,60,1.59,broken clouds
482,Olavarria,AR,-36.8927,-60.3225,61.02,58,36,10.67,scattered clouds
483,Shingu,JP,33.7333,135.9833,63.64,76,100,8.05,light rain
484,Tecoanapa,MX,16.5167,-98.75,86.72,48,100,13.62,overcast clouds
485,Altagracia De Orituco,VE,9.8601,-66.3814,93.7,29,7,6.17,clear sky
486,Asyut,EG,27.181,31.1837,87.84,18,100,16.8,overcast clouds
487,Surovikino,RU,48.6078,42.8486,48.87,83,8,7.11,clear sky
488,Taixing,CN,32.1667,120.0136,61.03,92,11,2.86,few clouds
489,Bandarban,BD,22.1965,92.2262,77.5,97,98,3.94,overcast clouds
490,Chifeng,CN,42.2683,118.9636,65.39,21,46,7.45,scattered clouds
491,Jining,CN,35.405,116.5814,64.35,48,1,5.93,clear sky
492,Podyuga,RU,61.095,40.8647,30.63,76,15,4.45,few clouds
493,Miri,MY,4.4148,114.0089,75.65,91,100,4.92,overcast clouds
494,Sorland,NO,67.667,12.6934,46.26,99,100,12.86,light rain
495,Mounana,GA,-1.4085,13.1586,73.42,96,100,1.88,overcast clouds
496,Haimen,CN,23.1935,116.6142,72.16,90,5,4.47,clear sky
497,Saginaw,US,43.3334,-84.0333,86.14,60,0,20.71,clear sky
498,Polis,CY,35.0367,32.4264,69.62,61,0,5.3,clear sky
499,Ulaangom,MN,49.9811,92.0667,55.15,55,4,0.25,clear sky
500,North Las Vegas,US,36.1989,-115.1175,79.14,11,0,21.85,clear sky
501,Mahur,IN,25.1667,93.1167,65.88,97,62,2.33,broken clouds
502,Kulhudhuffushi,MV,6.6221,73.07,83.28,77,21,14.32,few clouds
503,Kahama,TZ,-3.8333,32.6,67.68,53,100,1.41,overcast clouds
504,Lebork,PL,54.5392,17.7501,60.35,90,100,7.14,overcast clouds
505,Blytheville,US,35.9273,-89.919,91.33,40,0,24.16,clear sky
506,Erzin,TR,36.9559,36.2,65.95,35,0,4.68,clear sky
507,Praia Da Vitoria,PT,38.7333,-27.0667,64.76,87,100,4.65,overcast clouds
508,Bambanglipuro,ID,-7.95,110.2833,76.32,92,100,4.47,light rain
509,Male,MV,4.1748,73.5089,82.83,77,12,12.08,few clouds
510,Listowel,IE,52.4464,-9.485,55.11,86,4,14.88,clear sky
511,Le Vauclin,MQ,14.5452,-60.8388,86.05,62,75,17.27,broken clouds
512,Bentiu,SS,9.2333,29.8333,78.78,69,100,7.02,light rain
513,Tombouctou,ML,20.0,-3.0,97.59,7,15,10.63,few clouds
514,Timizart,DZ,36.8,4.2667,71.31,59,0,8.16,clear sky
515,Shenjiamen,CN,29.9576,122.298,63.23,96,100,4.63,overcast clouds
516,Shahr-E Babak,IR,30.1165,55.1186,75.0,13,0,6.93,clear sky
517,Hutchinson,US,38.0608,-97.9298,70.52,40,0,17.27,clear sky
518,Natal,BR,-5.795,-35.2094,86.65,70,20,13.8,few clouds
519,Savannah Bight,HN,16.45,-85.85,81.55,85,100,29.91,overcast clouds
520,Dieppe,FR,49.75,1.1667,60.33,81,0,1.01,clear sky
521,Port Augusta,AU,-32.5,137.7667,48.13,70,0,6.49,clear sky
522,Ukiah,US,39.1502,-123.2078,73.53,22,0,4.61,clear sky
523,Cordoba,AR,-31.4135,-64.1811,79.43,25,0,5.75,clear sky
524,Hukuntsi,BW,-24.0,21.75,44.94,63,0,16.49,clear sky
525,Frontera,MX,26.9333,-101.45,103.32,17,0,25.32,clear sky
526,Curuca,BR,-0.7289,-47.8481,76.51,90,100,6.98,overcast clouds
527,Singaraja,ID,-8.112,115.0882,79.12,84,58,4.0,broken clouds
528,Sisimiut,GL,66.9395,-53.6735,39.74,52,100,4.56,overcast clouds
529,Wanning,CN,18.8003,110.3967,76.46,90,100,1.9,overcast clouds
530,Sarakhs,IR,36.5449,61.1577,83.12,19,0,6.31,clear sky
531,Havelock,US,34.8791,-76.9013,94.98,75,8,8.01,clear sky
532,Guarapari,BR,-20.6667,-40.4975,73.02,56,0,10.74,clear sky
533,Bilibino,RU,68.0546,166.4372,34.9,88,26,2.77,scattered clouds
534,Marawi,PH,7.9986,124.2928,69.33,94,100,1.81,overcast clouds
535,Harper,LR,4.375,-7.7169,77.9,87,100,12.77,moderate rain
536,Tahta,EG,26.7693,31.5021,89.65,16,100,16.73,overcast clouds
537,Kenai,US,60.5544,-151.2583,66.02,36,0,11.5,clear sky
538,Omboue,GA,-1.5746,9.2618,75.99,91,100,5.53,overcast clouds
539,Mandalgovi,MN,45.7625,106.2708,61.47,31,5,5.03,clear sky
540,Qasigiannguit,GL,68.8193,-51.1922,37.65,76,100,2.01,overcast clouds
541,Trelew,AR,-43.249,-65.3051,68.16,31,79,20.11,broken clouds
542,Yangambi,CD,0.8102,24.4336,71.73,98,100,3.67,overcast clouds
543,Aswan,EG,24.0934,32.907,91.92,10,0,16.67,clear sky
544,Conde,BR,-7.2597,-34.9075,83.66,74,20,9.22,few clouds
545,Colares,PT,38.7992,-9.4469,81.59,52,0,20.71,clear sky
546,Saravan,AM,39.7196,45.6483,42.57,91,100,4.79,overcast clouds
547,Jistebnice,CZ,49.4855,14.5276,70.41,70,22,8.32,few clouds
548,Tynset,NO,62.2759,10.7824,53.22,74,100,7.92,overcast clouds
549,Kelvington,CA,52.1667,-103.5343,34.34,84,100,16.73,light snow
550,Talara,PE,-4.5772,-81.2719,75.96,64,0,17.27,clear sky
551,Paita,PE,-5.0892,-81.1144,72.48,71,17,16.15,few clouds
552,Karimpur,IN,23.9667,88.6167,86.0,73,1,8.23,light rain
553,Makaha,US,21.4694,-158.2175,76.91,88,100,5.75,light rain
554,Tura,IN,25.5198,90.2201,71.67,97,94,2.68,overcast clouds
555,Zubova Polyana,RU,54.0771,42.8372,37.62,75,4,5.19,clear sky
556,Lahij,YE,13.1667,44.5833,86.45,31,1,5.23,clear sky
557,Bairnsdale,AU,-37.8333,147.6167,42.96,93,2,3.18,clear sky
558,Lac Du Bonnet,CA,50.2536,-96.0612,38.48,93,100,14.2,overcast clouds
559,Mana,GF,5.6592,-53.7767,79.45,87,41,10.45,scattered clouds
560,Robertsport,LR,6.7533,-11.3686,80.38,82,100,10.96,overcast clouds
561,Kholodnyy,RU,62.7167,147.95,31.89,91,95,2.59,overcast clouds
562,Xichang,CN,27.8964,102.2634,57.02,90,100,1.07,overcast clouds
563,Kargasok,RU,59.0556,80.8572,48.7,85,98,16.44,overcast clouds
564,Port Hardy,CA,50.6996,-127.4199,48.83,79,19,4.83,few clouds
565,Lingyuan,CN,41.24,119.4011,63.05,51,100,5.97,overcast clouds
566,Provost,CA,52.3501,-110.2683,43.27,48,100,19.33,overcast clouds
567,Devils Lake,US,48.1128,-98.8651,39.31,81,100,20.71,overcast clouds
568,Baracoa,CU,20.3467,-74.4958,88.39,62,98,6.93,overcast clouds
569,Waipawa,NZ,-41.4122,175.5153,39.04,84,0,6.4,clear sky
570,Port Macquarie,AU,-31.4333,152.9167,57.09,100,100,5.75,overcast clouds
571,Ust-Tsilma,RU,65.441,52.1498,30.7,77,100,8.95,overcast clouds
572,Touros,BR,-5.1989,-35.4608,83.01,71,90,8.1,overcast clouds
573,Taksimo,RU,56.3444,114.8794,44.42,74,9,1.32,clear sky
574,Vernon,CA,50.2581,-119.2691,62.24,52,100,5.01,overcast clouds
575,Quatre Cocos,MU,-20.2078,57.7625,76.08,69,56,16.37,broken clouds
576,Suriapet,IN,17.15,79.6167,82.06,74,100,9.93,overcast clouds
577,Gasa,PS,31.5,34.4667,73.11,60,100,15.79,overcast clouds
578,Puerto Cabezas,NI,14.0351,-83.3888,84.96,69,100,9.89,overcast clouds
579,Sungairaya,ID,0.7,108.9,78.48,89,98,2.24,overcast clouds
580,Porto Belo,BR,-27.1578,-48.5531,69.8,56,0,5.3,clear sky
581,Saint-Francois,FR,46.4154,3.9054,78.24,50,0,8.05,clear sky
582,Majene,ID,-3.5403,118.9707,76.84,83,100,6.04,overcast clouds
583,Los Llanos De Aridane,ES,28.6585,-17.9182,69.12,82,20,14.97,few clouds
584,Bahia Blanca,AR,-38.7196,-62.2724,60.69,36,100,8.66,overcast clouds
585,Novikovo,RU,51.1537,37.8879,50.25,69,100,4.54,overcast clouds
586,Dawson,US,31.7735,-84.4466,96.22,32,98,10.56,overcast clouds
587,Manggar,ID,-2.8833,108.2667,79.95,85,100,6.13,overcast clouds
588,Fort Dodge,US,42.4975,-94.168,66.18,42,100,12.66,overcast clouds
589,Broome,US,42.2506,-75.833,81.37,59,75,13.8,broken clouds
590,Tilichiki,RU,60.4667,166.1,35.51,93,100,4.14,overcast clouds
591,Sri Aman,MY,1.2376,111.4621,77.05,94,100,0.0,overcast clouds
592,Pimenta Bueno,BR,-11.6725,-61.1936,78.24,41,100,3.31,overcast clouds
593,Nokaneng,BW,-19.6667,22.2667,72.37,16,97,12.66,overcast clouds
594,Horsham,GB,51.064,-0.3272,60.03,84,40,10.36,scattered clouds
595,Okha,RU,53.5739,142.9478,32.67,90,85,7.16,overcast clouds
596,Fort Myers Beach,US,26.452,-81.9481,89.04,73,0,7.0,clear sky
597,Ziyang,CN,29.2497,117.8547,61.41,96,100,0.76,overcast clouds
598,San Vicente,AR,-26.6167,-54.1333,62.64,39,0,4.07,clear sky
599,Escarcega,MX,18.6089,-90.7454,105.78,23,38,5.17,scattered clouds
600,Nemuro,JP,43.3236,145.575,46.45,92,3,1.59,clear sky
601,Biltine,TD,14.5333,20.9167,93.47,9,4,8.23,clear sky
602,Brewster,US,41.3973,-73.6171,76.19,77,20,12.66,few clouds
603,Alzamay,RU,55.5562,98.6644,55.35,75,100,3.98,overcast clouds
604,Neiafu,TO,-18.65,-173.9833,79.07,80,89,14.34,light rain
605,Naze,JP,28.3667,129.4833,72.52,90,100,19.44,overcast clouds
606,Meadville,US,41.6414,-80.1515,77.86,83,100,8.05,overcast clouds
607,Savonlinna,FI,61.8699,28.88,42.85,61,0,2.3,clear sky
608,Roxas,PH,11.5853,122.7511,75.15,84,100,3.78,moderate rain
609,Biankouma,CI,7.7391,-7.6138,75.69,83,29,2.82,light rain
610,Sistranda,NO,63.7256,8.834,58.96,85,100,12.84,overcast clouds
611,Eugene,US,44.0521,-123.0867,58.82,65,75,10.36,broken clouds
612,Pasni,PK,25.2631,63.471,82.51,88,0,10.4,clear sky
613,Pemangkat,ID,1.1667,108.9667,78.67,87,100,4.21,overcast clouds
614,Boa Vista,BR,2.8197,-60.6733,85.98,70,40,6.91,scattered clouds
615,Shache,CN,38.4167,77.2406,71.67,35,100,16.91,overcast clouds
616,Anloga,GH,5.7947,0.8973,82.67,79,82,11.81,light rain
617,Hobyo,SO,5.3505,48.5268,80.1,83,71,25.72,broken clouds
618,Port Moresby,PG,-9.4431,147.1797,74.62,94,20,3.44,few clouds
619,Whitehorse,CA,60.7161,-135.0538,55.09,43,9,5.01,clear sky
620,Tasgaon,IN,17.0333,74.6,72.18,80,100,6.42,overcast clouds
621,Taoudenni,ML,22.6783,-3.9836,104.09,6,100,9.06,overcast clouds
622,Tshane,BW,-24.0196,21.8684,44.92,63,0,15.93,clear sky
623,Pachino,IT,36.7186,15.0907,65.86,64,0,12.41,clear sky
624,Dalvik,IS,65.9702,-18.5286,55.33,77,100,3.33,overcast clouds
625,Morgan City,US,29.6994,-91.2068,88.0,70,40,10.36,scattered clouds
626,Point Fortin,TT,10.1833,-61.6833,88.9,70,2,7.7,clear sky
627,Trondheim,NO,63.4305,10.3951,62.65,59,100,1.99,overcast clouds
628,Celestun,MX,20.8667,-90.4,91.72,56,91,6.26,overcast clouds
629,Tessalit,ML,20.1986,1.0114,95.81,8,75,4.23,broken clouds
630,Turiacu,BR,-1.6633,-45.3717,79.11,91,88,0.43,overcast clouds
631,Umea,SE,63.8284,20.2597,49.93,66,0,6.91,clear sky
632,Orsha,BY,54.5153,30.4053,51.62,97,100,12.82,overcast clouds
633,Broken Hill,AU,-31.95,141.4333,49.32,79,100,9.1,overcast clouds
634,Trincomalee,LK,8.5711,81.2335,81.95,76,89,22.06,overcast clouds
635,Bubaque,GW,11.2833,-15.8333,79.32,79,3,19.3,clear sky
636,Pedernales,DO,18.0384,-71.744,89.42,51,25,6.24,scattered clouds
637,Babstovo,RU,48.1167,132.4833,54.63,96,100,3.78,light rain
638,Alencon,FR,48.4333,0.0833,59.58,77,0,4.97,clear sky
639,Salinopolis,BR,-0.6136,-47.3561,78.53,88,100,10.29,light rain
640,La Paz,BO,-16.5,-68.15,62.58,13,40,10.36,scattered clouds
641,Atar,MR,20.5169,-13.0499,98.89,13,91,11.3,overcast clouds
642,Sokolo,ML,14.7328,-6.1219,101.34,20,100,10.83,overcast clouds
643,Athabasca,CA,54.7169,-113.2854,50.41,34,100,14.34,overcast clouds
644,Ponta Delgada,PT,37.7333,-25.6667,63.32,77,20,14.97,few clouds
645,Mehriz,IR,31.5917,54.4318,77.5,12,0,2.93,clear sky
646,Conway,US,35.0887,-92.4421,87.82,55,20,20.71,few clouds
647,Tiarei,PF,-17.5333,-149.3333,82.42,72,12,10.45,few clouds
648,Thurso,GB,58.5927,-3.5259,52.05,96,100,2.44,light rain
649,Honningsvag,NO,70.9821,25.9704,40.75,70,100,12.66,overcast clouds
650,Itapemirim,BR,-21.0111,-40.8339,74.59,52,1,11.97,clear sky
651,Mezen,RU,65.8522,44.24,29.48,80,45,7.09,scattered clouds
652,Kristiinankaupunki,FI,62.2743,21.376,48.2,68,11,6.29,few clouds
653,Monterrey,MX,25.6667,-100.3167,106.47,11,83,5.19,broken clouds
654,Balabac,PH,7.9868,117.0645,81.36,81,100,8.1,overcast clouds
655,Kautokeino,NO,69.0125,23.0412,33.94,99,100,2.28,overcast clouds
656,Zhezkazgan,KZ,47.8043,67.7144,65.46,32,9,7.85,clear sky
657,Hay River,CA,60.8156,-115.7999,53.58,32,40,6.91,scattered clouds
658,Tambura,SS,5.6,27.4667,68.95,96,100,4.38,light rain
659,Rudbar,AF,30.15,62.6,85.51,12,0,9.17,clear sky
660,Nara,JP,34.6851,135.8049,66.49,50,100,1.34,light rain
661,Vaasa,FI,63.096,21.6158,53.62,37,0,4.61,clear sky
662,Andenes,NO,69.3143,16.1194,48.18,81,75,8.05,broken clouds
663,Iracoubo,GF,5.4802,-53.2011,79.0,88,66,9.93,light rain
664,Nhulunbuy,AU,-12.2333,136.7667,75.81,88,0,4.61,clear sky
665,Maputo,MZ,-25.9653,32.5892,74.88,87,20,10.36,few clouds
666,Ciudad Bolivar,VE,8.1222,-63.5497,96.67,31,70,8.41,broken clouds
667,Shagonar,RU,51.5333,92.8,50.5,85,19,1.05,few clouds
668,Mbuguni,TZ,-3.5667,36.95,68.04,72,81,7.56,broken clouds
669,Alexandria,EG,31.2156,29.9553,68.5,79,0,14.34,clear sky
670,Shakhtinsk,KZ,49.71,72.5872,61.52,40,9,8.43,clear sky
671,Gobabis,NA,-22.45,18.9667,45.09,35,0,9.73,clear sky
672,Tarancon,ES,40.0085,-3.0073,82.22,38,97,21.59,overcast clouds
673,Saint-Georges,GD,12.0564,-61.7485,85.68,70,20,16.11,few clouds
